{
"type": "FeatureCollection",
"crs": { "type": "name", "properties": { "name": "urn:ogc:def:crs:OGC:1.3:CRS84" } },
"features": [
{ "type": "Feature", "properties": { "Name": "Amato, Johnathan", "Address": "707 ROCK CREEK RD", "approval date": "5\/5\/17" }, "geometry": { "type": "Point", "coordinates": [ -78.50020315453321, 38.022922367488832 ] } },
{ "type": "Feature", "properties": { "Name": "Amato, Jonathan", "Address": "707 ROCK CREEK RD", "approval date": "4\/20\/16" }, "geometry": { "type": "Point", "coordinates": [ -78.50020315453321, 38.022922367488832 ] } },
{ "type": "Feature", "properties": { "Name": "Eusebio, Pires", "Address": "606 SHAMROCK RD", "approval date": "4\/19\/17" }, "geometry": { "type": "Point", "coordinates": [ -78.504805197908965, 38.022410519609267 ] } },
{ "type": "Feature", "properties": { "Name": "Pires, Eusebio", "Address": "606 SHAMROCK RD", "approval date": "8\/16\/16" }, "geometry": { "type": "Point", "coordinates": [ -78.504805197908965, 38.022410519609267 ] } },
{ "type": "Feature", "properties": { "Name": "Pires, Eusebid ", "Address": "606 SHAMROCK RD", "approval date": "3\/27\/18" }, "geometry": { "type": "Point", "coordinates": [ -78.504805197908965, 38.022410519609267 ] } },
{ "type": "Feature", "properties": { "Name": "Smith, Meri Jane", "Address": "114 TODD AVE", "approval date": "5\/2\/17" }, "geometry": { "type": "Point", "coordinates": [ -78.513532548966836, 38.0249234241629 ] } },
{ "type": "Feature", "properties": { "Name": "Von Herbulis, Taylor", "Address": "1111 HARRIS ST", "approval date": "3\/30\/17" }, "geometry": { "type": "Point", "coordinates": [ -78.481624923068409, 38.039116157832119 ] } },
{ "type": "Feature", "properties": { "Name": "Hasenkamp, Wendy", "Address": "219 DOUGLAS AVE #A", "approval date": "3\/28\/17" }, "geometry": { "type": "Point", "coordinates": [ -78.474593642061322, 38.025723255793466 ] } },
{ "type": "Feature", "properties": { "Name": "heblich, Elisabeth", "Address": "1617 GROVE ST EXT", "approval date": "2\/22\/17" }, "geometry": { "type": "Point", "coordinates": [ -78.505707210670849, 38.02773062618347 ] } },
{ "type": "Feature", "properties": { "Name": "Keller, Genevive", "Address": "504 1ST ST N", "approval date": "1\/10\/17" }, "geometry": { "type": "Point", "coordinates": [ -78.479605131682817, 38.034600452580023 ] } },
{ "type": "Feature", "properties": { "Name": "Williams, Julia", "Address": "751 BELMONT AVE", "approval date": "11\/4\/16" }, "geometry": { "type": "Point", "coordinates": [ -78.477655434945248, 38.024926984921557 ] } },
{ "type": "Feature", "properties": { "Name": "LeBeau, Sally", "Address": "1117 RIVER CT #A", "approval date": "1\/29\/16" }, "geometry": { "type": "Point", "coordinates": [ -78.455428721898699, 38.043449357179924 ] } },
{ "type": "Feature", "properties": { "Name": "Check, Mark", "Address": "609 BOLLING AVE", "approval date": "3\/15\/17" }, "geometry": { "type": "Point", "coordinates": [ -78.480743239534235, 38.02420655156368 ] } },
{ "type": "Feature", "properties": { "Name": "Campbell, Allison", "Address": "1120 E JEFFERSON ST", "approval date": "3\/9\/17" }, "geometry": { "type": "Point", "coordinates": [ -78.470263607983426, 38.028868765321306 ] } },
{ "type": "Feature", "properties": { "Name": "Heyer, Elizabeth", "Address": "731 LOCUST AVE", "approval date": "2\/9\/17" }, "geometry": { "type": "Point", "coordinates": [ -78.469207337879155, 38.035180470287116 ] } },
{ "type": "Feature", "properties": { "Name": "Villalobo, Diana", "Address": "826 ST CLAIR AVE", "approval date": "3\/21\/17" }, "geometry": { "type": "Point", "coordinates": [ -78.465481192292174, 38.035968112218505 ] } },
{ "type": "Feature", "properties": { "Name": "Huerta, Thomas", "Address": "1612 CAMBRIDGE CIR #A", "approval date": "3\/21\/17" }, "geometry": { "type": "Point", "coordinates": [ -78.487670792849869, 38.049350167820187 ] } },
{ "type": "Feature", "properties": { "Name": "Stahl, Herbert", "Address": "2339 HIGHLAND AVE", "approval date": "3\/20\/17" }, "geometry": { "type": "Point", "coordinates": [ -78.510354855563989, 38.021712765548216 ] } },
{ "type": "Feature", "properties": { "Name": "Illinger, Mark & Tara", "Address": "909 RAYMOND RD", "approval date": "1\/3\/17" }, "geometry": { "type": "Point", "coordinates": [ -78.493009234246273, 38.018438714198986 ] } },
{ "type": "Feature", "properties": { "Name": "Illgner, Mar and Tara", "Address": "909 RAYMOND RD", "approval date": "1\/9\/18" }, "geometry": { "type": "Point", "coordinates": [ -78.493009234246273, 38.018438714198986 ] } },
{ "type": "Feature", "properties": { "Name": "Brady, Ryan", "Address": "102 SOMESSO CT", "approval date": "11\/30\/16" }, "geometry": { "type": "Point", "coordinates": [ -78.488853178754965, 38.023298660047999 ] } },
{ "type": "Feature", "properties": { "Name": "McCune, Catherine", "Address": "606 ALTAVISTA AVE #B", "approval date": "12\/12\/16" }, "geometry": { "type": "Point", "coordinates": [ -78.483255031887012, 38.020902502489704 ] } },
{ "type": "Feature", "properties": { "Name": "Pearson, Kathleen", "Address": "1614 OXFORD RD", "approval date": "12\/15\/16" }, "geometry": { "type": "Point", "coordinates": [ -78.4881887606292, 38.047607020210542 ] } },
{ "type": "Feature", "properties": { "Name": "IGOMA LLC (Peter Micheletti)", "Address": "317 7 1\/2 ST SW", "approval date": "8\/15\/16" }, "geometry": { "type": "Point", "coordinates": [ -78.49185690908061, 38.02920771566783 ] } },
{ "type": "Feature", "properties": { "Name": "Corcoran, Theodore", "Address": "1855 WINSTON RD", "approval date": "8\/14\/16" }, "geometry": { "type": "Point", "coordinates": [ -78.500585100130934, 38.046875522108557 ] } },
{ "type": "Feature", "properties": { "Name": "Clayton, Signe", "Address": "217 DOUGLAS AVE", "approval date": "11\/15\/16" }, "geometry": { "type": "Point", "coordinates": [ -78.474477091854467, 38.025914142137452 ] } },
{ "type": "Feature", "properties": { "Name": "Sheppard, Bunny", "Address": "412 3RD ST NE", "approval date": "4\/20\/16" }, "geometry": { "type": "Point", "coordinates": [ -78.47855969619232, 38.033064932809374 ] } },
{ "type": "Feature", "properties": { "Name": "Thrasher, Cat", "Address": "231 4TH ST SW", "approval date": "8\/3\/17" }, "geometry": { "type": "Point", "coordinates": [ -78.487729198048456, 38.028961997775674 ] } },
{ "type": "Feature", "properties": { "Name": "Terrill, Lynda & Thomas", "Address": "421 4TH ST NE", "approval date": "7\/29\/16" }, "geometry": { "type": "Point", "coordinates": [ -78.477638762859002, 38.033682082941361 ] } },
{ "type": "Feature", "properties": { "Name": "Biemann, Asher", "Address": "220 5TH ST SW", "approval date": "5\/24\/16" }, "geometry": { "type": "Point", "coordinates": [ -78.488505991498144, 38.029255038055453 ] } },
{ "type": "Feature", "properties": { "Name": "Stien, Jennifer", "Address": "211 5TH ST SW #102", "approval date": "4\/26\/16" }, "geometry": { "type": "Point", "coordinates": [ -78.488741568988729, 38.03002022678946 ] } },
{ "type": "Feature", "properties": { "Name": "Malik, Ajay", "Address": "934 5TH ST SW", "approval date": "10\/25\/16" }, "geometry": { "type": "Point", "coordinates": [ -78.491978985407073, 38.023444893709303 ] } },
{ "type": "Feature", "properties": { "Name": "Haupt, Anna", "Address": "321 6TH ST SW", "approval date": "4\/11\/16" }, "geometry": { "type": "Point", "coordinates": [ -78.490285022450635, 38.028588126589248 ] } },
{ "type": "Feature", "properties": { "Name": "Amorin, Alexandra", "Address": "1306 6TH ST SE", "approval date": "5\/10\/16" }, "geometry": { "type": "Point", "coordinates": [ -78.484285010137413, 38.019865613726701 ] } },
{ "type": "Feature", "properties": { "Name": "Drummond, Charlotte", "Address": "312 7TH ST SW", "approval date": "10\/19\/15" }, "geometry": { "type": "Point", "coordinates": [ -78.490187385958933, 38.029734450189224 ] } },
{ "type": "Feature", "properties": { "Name": "Mann, Carla", "Address": "324 7 1\/2 ST SW", "approval date": "6\/25\/16" }, "geometry": { "type": "Point", "coordinates": [ -78.491758904000292, 38.028909782846867 ] } },
{ "type": "Feature", "properties": { "Name": "Levine, Faith", "Address": "410 7 1\/2 ST SW", "approval date": "5\/25\/16" }, "geometry": { "type": "Point", "coordinates": [ -78.492541383363459, 38.027996662725585 ] } },
{ "type": "Feature", "properties": { "Name": "Templeton, Robyn", "Address": "420 9TH ST NW", "approval date": "4\/4\/16" }, "geometry": { "type": "Point", "coordinates": [ -78.490115491362005, 38.03601710804773 ] } },
{ "type": "Feature", "properties": { "Name": "Yoder, Naomi & Andrew", "Address": "313 10TH ST NW", "approval date": "4\/20\/16" }, "geometry": { "type": "Point", "coordinates": [ -78.493314662123751, 38.035691335899273 ] } },
{ "type": "Feature", "properties": { "Name": "Kechner, Nancy", "Address": "208 12TH ST NE", "approval date": "6\/29\/16" }, "geometry": { "type": "Point", "coordinates": [ -78.469381419127657, 38.027872577461757 ] } },
{ "type": "Feature", "properties": { "Name": "Kechner, Nancy", "Address": "208 12TH ST NE", "approval date": "9\/13\/18" }, "geometry": { "type": "Point", "coordinates": [ -78.469381419127657, 38.027872577461757 ] } },
{ "type": "Feature", "properties": { "Name": "Mook, Dana", "Address": "1207 AGNESE ST", "approval date": "1\/10\/16" }, "geometry": { "type": "Point", "coordinates": [ -78.461958996577835, 38.046944011407945 ] } },
{ "type": "Feature", "properties": { "Name": "Fjord, Lakshmi", "Address": "420 ALTAMONT ST", "approval date": "4\/6\/16" }, "geometry": { "type": "Point", "coordinates": [ -78.481830650473299, 38.03487054168658 ] } },
{ "type": "Feature", "properties": { "Name": "Millich, Frank", "Address": "414 ARBOR CIR", "approval date": "9\/9\/14" }, "geometry": { "type": "Point", "coordinates": [ -78.463056474830353, 38.02883874628062 ] } },
{ "type": "Feature", "properties": { "Name": "Geddy, Charlotte & Bryan", "Address": "1112 AVON ST", "approval date": "4\/17\/16" }, "geometry": { "type": "Point", "coordinates": [ -78.481557544450126, 38.02078164286489 ] } },
{ "type": "Feature", "properties": { "Name": "duPont, Westley", "Address": "1406 BAKER ST", "approval date": "6\/17\/16" }, "geometry": { "type": "Point", "coordinates": [ -78.502724037673232, 38.025564181819966 ] } },
{ "type": "Feature", "properties": { "Name": "Matthews, Ashley", "Address": "166 BAYLOR LN", "approval date": "5\/18\/16" }, "geometry": { "type": "Point", "coordinates": [ -78.490926963563183, 38.017690586826028 ] } },
{ "type": "Feature", "properties": { "Name": "Fisher, Lara", "Address": "1212 BELLEVIEW AVE", "approval date": "4\/29\/16" }, "geometry": { "type": "Point", "coordinates": [ -78.461304979867791, 38.038333001474882 ] } },
{ "type": "Feature", "properties": { "Name": "Fisher, Lara", "Address": "1212 BELLEVIEW AVE", "approval date": "5\/16\/17" }, "geometry": { "type": "Point", "coordinates": [ -78.461304979867791, 38.038333001474882 ] } },
{ "type": "Feature", "properties": { "Name": "Towns, Anna", "Address": "900 BELMONT AVE", "approval date": "7\/12\/16" }, "geometry": { "type": "Point", "coordinates": [ -78.475383033619806, 38.023493110101974 ] } },
{ "type": "Feature", "properties": { "Name": "Slezak, Suzanne", "Address": "913 BLENHEIM AVE", "approval date": "6\/17\/16" }, "geometry": { "type": "Point", "coordinates": [ -78.475994685749654, 38.021025629182773 ] } },
{ "type": "Feature", "properties": { "Name": "Schneider, Portia", "Address": "325 CAMELLIA DR", "approval date": "4\/26\/16" }, "geometry": { "type": "Point", "coordinates": [ -78.51142408476521, 38.010770897674838 ] } },
{ "type": "Feature", "properties": { "Name": "Payne, Donnell & Paulette", "Address": "314 CARLTON RD", "approval date": "4\/19\/16" }, "geometry": { "type": "Point", "coordinates": [ -78.470435145030123, 38.021268343460811 ] } },
{ "type": "Feature", "properties": { "Name": "Skolits, Abigail", "Address": "917 CHERRY AVE", "approval date": "6\/1\/16" }, "geometry": { "type": "Point", "coordinates": [ -78.496224587391467, 38.028833606438646 ] } },
{ "type": "Feature", "properties": { "Name": "Balderas-Baca, Lindsay", "Address": "1518 CHERRY AVE", "approval date": "4\/6\/16" }, "geometry": { "type": "Point", "coordinates": [ -78.504463058935343, 38.023977360736232 ] } },
{ "type": "Feature", "properties": { "Name": "Steffan, David & Annemarie", "Address": "1717 CHERRY AVE", "approval date": "4\/20\/16" }, "geometry": { "type": "Point", "coordinates": [ -78.510637239106373, 38.020344357521815 ] } },
{ "type": "Feature", "properties": { "Name": "Wann, Beverly", "Address": "1733 CHESAPEAKE ST #A", "approval date": "6\/20\/16" }, "geometry": { "type": "Point", "coordinates": [ -78.457085992987388, 38.023744965794997 ] } },
{ "type": "Feature", "properties": { "Name": "Gilchrist, Julia", "Address": "115 CHISHOLM PL", "approval date": "5\/27\/16" }, "geometry": { "type": "Point", "coordinates": [ -78.463672156050279, 38.027369751316556 ] } },
{ "type": "Feature", "properties": { "Name": "Cayce, Catherine", "Address": "414 DICE ST", "approval date": "4\/11\/16" }, "geometry": { "type": "Point", "coordinates": [ -78.488449600889055, 38.028659705629977 ] } },
{ "type": "Feature", "properties": { "Name": "Sienitsky, Natalia", "Address": "600 DICE ST", "approval date": "4\/29\/16" }, "geometry": { "type": "Point", "coordinates": [ -78.489783143937657, 38.029222681642587 ] } },
{ "type": "Feature", "properties": { "Name": "Santen-Arts, Saskia", "Address": "1605 DUBLIN RD", "approval date": "4\/20\/16" }, "geometry": { "type": "Point", "coordinates": [ -78.503283568823051, 38.019345277143699 ] } },
{ "type": "Feature", "properties": { "Name": "Isley, Elizabeth", "Address": "110 ELKHORN RD", "approval date": "4\/29\/16" }, "geometry": { "type": "Point", "coordinates": [ -78.500877755387151, 38.021307546831153 ] } },
{ "type": "Feature", "properties": { "Name": "Cetic, Panto", "Address": "401 FAIRWAY AVE", "approval date": "9\/9\/14" }, "geometry": { "type": "Point", "coordinates": [ -78.462336054293601, 38.027444482483006 ] } },
{ "type": "Feature", "properties": { "Name": "Slezak, David", "Address": "722 FRANKLIN ST", "approval date": "1\/11\/16" }, "geometry": { "type": "Point", "coordinates": [ -78.464668282030217, 38.019985048547397 ] } },
{ "type": "Feature", "properties": { "Name": "Lake, Michael", "Address": "1411 GENTRY LN", "approval date": "5\/27\/16" }, "geometry": { "type": "Point", "coordinates": [ -78.487967821786469, 38.051689835134894 ] } },
{ "type": "Feature", "properties": { "Name": "Kadija, Ivana", "Address": "712 GRAVES ST #A", "approval date": "4\/26\/16" }, "geometry": { "type": "Point", "coordinates": [ -78.475402126194481, 38.027053646492611 ] } },
{ "type": "Feature", "properties": { "Name": "Solla-yates, Ian", "Address": "1208 GREENWAY RD", "approval date": "5\/1\/16" }, "geometry": { "type": "Point", "coordinates": [ -78.486850869452752, 38.043356603929055 ] } },
{ "type": "Feature", "properties": { "Name": "Tharp, Steve", "Address": "405 HEDGE ST", "approval date": "6\/2\/14" }, "geometry": { "type": "Point", "coordinates": [ -78.47713669247446, 38.033803343497979 ] } },
{ "type": "Feature", "properties": { "Name": "Herman, Seth", "Address": "1111 HAZEL ST", "approval date": "4\/14\/16" }, "geometry": { "type": "Point", "coordinates": [ -78.467289071383036, 38.03472617759882 ] } },
{ "type": "Feature", "properties": { "Name": "Panella, Christina", "Address": "2206 HILL ST", "approval date": "6\/25\/16" }, "geometry": { "type": "Point", "coordinates": [ -78.511649950129552, 38.024681165639599 ] } },
{ "type": "Feature", "properties": { "Name": "Eslocker, Asa", "Address": "214 LANKFORD AVE", "approval date": "5\/9\/16" }, "geometry": { "type": "Point", "coordinates": [ -78.489262885234112, 38.022623493145133 ] } },
{ "type": "Feature", "properties": { "Name": "Monteagudo, Maria", "Address": "1419 LESTER DR", "approval date": "4\/5\/16" }, "geometry": { "type": "Point", "coordinates": [ -78.473782491436296, 38.058290236665016 ] } },
{ "type": "Feature", "properties": { "Name": "Jackson, Giles", "Address": "716 LEVY AVE", "approval date": "4\/28\/16" }, "geometry": { "type": "Point", "coordinates": [ -78.477090134066259, 38.026326582570015 ] } },
{ "type": "Feature", "properties": { "Name": "Hoess, Cheryl", "Address": "1949 LEWIS MOUNTAIN RD", "approval date": "4\/4\/16" }, "geometry": { "type": "Point", "coordinates": [ -78.511705979359874, 38.038584265527206 ] } },
{ "type": "Feature", "properties": { "Name": "Caduff, Matt", "Address": "620 LEXINGTON AVE", "approval date": "4\/11\/16" }, "geometry": { "type": "Point", "coordinates": [ -78.471366379933627, 38.03468717795041 ] } },
{ "type": "Feature", "properties": { "Name": "Belt, Carolyn", "Address": "1011 LITTLE HIGH ST #A", "approval date": "4\/6\/16" }, "geometry": { "type": "Point", "coordinates": [ -78.471180482631141, 38.03098135649546 ] } },
{ "type": "Feature", "properties": { "Name": "White, Price & Frayser", "Address": "1012 LOCUST AVE", "approval date": "4\/26\/16" }, "geometry": { "type": "Point", "coordinates": [ -78.462471959846937, 38.040777583342056 ] } },
{ "type": "Feature", "properties": { "Name": "Claasen, Johanna", "Address": "1010 LOCUST LN", "approval date": "4\/20\/16" }, "geometry": { "type": "Point", "coordinates": [ -78.456867301514691, 38.044300308181931 ] } },
{ "type": "Feature", "properties": { "Name": "Rohdie, Matthew", "Address": "1014 LOCUST LN", "approval date": "6\/1\/16" }, "geometry": { "type": "Point", "coordinates": [ -78.45634646987692, 38.044258759014369 ] } },
{ "type": "Feature", "properties": { "Name": "Liskey, Seth", "Address": "408 E MARKET ST #302", "approval date": "10\/20\/16" }, "geometry": { "type": "Point", "coordinates": [ -78.478587276954471, 38.03050964337227 ] } },
{ "type": "Feature", "properties": { "Name": "McMinds, Peter", "Address": "1819 MEADOWBROOK HEIGHTS RD", "approval date": "5\/5\/16" }, "geometry": { "type": "Point", "coordinates": [ -78.476235597337805, 38.062041284161317 ] } },
{ "type": "Feature", "properties": { "Name": "Swain, Sarah", "Address": "1006 MERIDIAN ST", "approval date": "1\/25\/16" }, "geometry": { "type": "Point", "coordinates": [ -78.477892018980199, 38.01998512092478 ] } },
{ "type": "Feature", "properties": { "Name": "Tenhundfeld,", "Address": "106 MINOR RD", "approval date": "6\/1\/16" }, "geometry": { "type": "Point", "coordinates": [ -78.511950245134898, 38.039495960621537 ] } },
{ "type": "Feature", "properties": { "Name": "Bott, Christopher", "Address": "428 MONROE LN #308", "approval date": "4\/20\/16" }, "geometry": { "type": "Point", "coordinates": [ -78.502786121692878, 38.030920745310702 ] } },
{ "type": "Feature", "properties": { "Name": "Schaffer, Carrie", "Address": "233 MONTE VISTA AVE", "approval date": "8\/5\/16" }, "geometry": { "type": "Point", "coordinates": [ -78.514754690644295, 38.014251960802774 ] } },
{ "type": "Feature", "properties": { "Name": "Scheibel, Errin", "Address": "914 MONTROSE AVE #A", "approval date": "4\/20\/16" }, "geometry": { "type": "Point", "coordinates": [ -78.476608701699831, 38.019968317430042 ] } },
{ "type": "Feature", "properties": { "Name": "Benedikt, Nicole", "Address": "440 MOSELEY DR", "approval date": "5\/25\/16" }, "geometry": { "type": "Point", "coordinates": [ -78.506252239931129, 38.016753454948237 ] } },
{ "type": "Feature", "properties": { "Name": "Heltzel, Bejamin", "Address": "1647 MULBERRY AVE", "approval date": "4\/11\/16" }, "geometry": { "type": "Point", "coordinates": [ -78.509907608261472, 38.022334955032846 ] } },
{ "type": "Feature", "properties": { "Name": "Levy, Shanti", "Address": "708 NALLE ST", "approval date": "5\/15\/16" }, "geometry": { "type": "Point", "coordinates": [ -78.491997773137143, 38.029391201806128 ] } },
{ "type": "Feature", "properties": { "Name": "Barratt, Jeff", "Address": "805 NALLE ST #A", "approval date": "5\/19\/16" }, "geometry": { "type": "Point", "coordinates": [ -78.493608519654046, 38.03014693798486 ] } },
{ "type": "Feature", "properties": { "Name": "Olair, Dotan", "Address": "700 NORTHWOOD AVE", "approval date": "3\/1\/16" }, "geometry": { "type": "Point", "coordinates": [ -78.477552772463042, 38.036519715698027 ] } },
{ "type": "Feature", "properties": { "Name": "Azizuddin, Umar", "Address": "150 OLD FIFTH CIR", "approval date": "10\/31\/16" }, "geometry": { "type": "Point", "coordinates": [ -78.499720086626283, 38.015215465458425 ] } },
{ "type": "Feature", "properties": { "Name": "Sider, Alyson", "Address": "1508 OXFORD RD", "approval date": "6\/1\/16" }, "geometry": { "type": "Point", "coordinates": [ -78.484306351126719, 38.047001047338597 ] } },
{ "type": "Feature", "properties": { "Name": "Huffman, Tate", "Address": "1055 PAGE ST", "approval date": "4\/20\/16" }, "geometry": { "type": "Point", "coordinates": [ -78.494718967408502, 38.035868091364584 ] } },
{ "type": "Feature", "properties": { "Name": "Morris, Sarah", "Address": "1404 OXFORD RD", "approval date": "4\/29\/16" }, "geometry": { "type": "Point", "coordinates": [ -78.480713446023714, 38.046566437173077 ] } },
{ "type": "Feature", "properties": { "Name": "Monnes, Catherine", "Address": "1309 POPLAR ST", "approval date": "4\/28\/16" }, "geometry": { "type": "Point", "coordinates": [ -78.466496648963812, 38.032996656458664 ] } },
{ "type": "Feature", "properties": { "Name": "Lund, Jason", "Address": "913 RAYMOND RD", "approval date": "5\/6\/16" }, "geometry": { "type": "Point", "coordinates": [ -78.493037819318332, 38.018146347250607 ] } },
{ "type": "Feature", "properties": { "Name": "Carragan, Michele", "Address": "1017 RIDGE ST", "approval date": "7\/1\/16" }, "geometry": { "type": "Point", "coordinates": [ -78.495091392306364, 38.01838127364659 ] } },
{ "type": "Feature", "properties": { "Name": "Schmidt, Andrew", "Address": "103 RDES CT", "approval date": "4\/11\/16" }, "geometry": { "type": "Point", "coordinates": [ -78.48908512578484, 38.023661244437108 ] } },
{ "type": "Feature", "properties": { "Name": "Wiley, Scott", "Address": "812 ROSE HILL DR", "approval date": "10\/19\/15" }, "geometry": { "type": "Point", "coordinates": [ -78.486645670775815, 38.038589201947417 ] } },
{ "type": "Feature", "properties": { "Name": "Arrington, Anne", "Address": "1205 RUGBY RD", "approval date": "2\/1\/15" }, "geometry": { "type": "Point", "coordinates": [ -78.49301120412332, 38.048300810764545 ] } },
{ "type": "Feature", "properties": { "Name": "Mawyer, Novella", "Address": "715 SHAMROCK RD", "approval date": "5\/27\/16" }, "geometry": { "type": "Point", "coordinates": [ -78.501552143806677, 38.020463249945927 ] } },
{ "type": "Feature", "properties": { "Name": "Butler, Eileen", "Address": "1111 ST CHARLES CT", "approval date": "6\/2\/16" }, "geometry": { "type": "Point", "coordinates": [ -78.460910656040724, 38.043893767022041 ] } },
{ "type": "Feature", "properties": { "Name": "McRae, Lisa", "Address": "921 ST CHARLES AVE", "approval date": "4\/27\/16" }, "geometry": { "type": "Point", "coordinates": [ -78.465760448212265, 38.040549459494663 ] } },
{ "type": "Feature", "properties": { "Name": "Shchrank, Elizabeth", "Address": "921 ST CLAIR AVE", "approval date": "4\/5\/16" }, "geometry": { "type": "Point", "coordinates": [ -78.463105056410541, 38.038409894828519 ] } },
{ "type": "Feature", "properties": { "Name": "Hall, Gwendalyn", "Address": "805 STONEHENGE AVE", "approval date": "4\/14\/16" }, "geometry": { "type": "Point", "coordinates": [ -78.480861861213384, 38.018112339555039 ] } },
{ "type": "Feature", "properties": { "Name": "Andelic, Jozo", "Address": "135 STRIBLING AVE", "approval date": "5\/19\/16" }, "geometry": { "type": "Point", "coordinates": [ -78.517922829353381, 38.023248626264127 ] } },
{ "type": "Feature", "properties": { "Name": "Chokel, Seth", "Address": "1946 THOMSON RD", "approval date": "4\/29\/16" }, "geometry": { "type": "Point", "coordinates": [ -78.511833655116419, 38.037258561735968 ] } },
{ "type": "Feature", "properties": { "Name": "Fry, Donald & Joan", "Address": "35 UNIVERSITY CIR", "approval date": "10\/20\/15" }, "geometry": { "type": "Point", "coordinates": [ -78.502971208056863, 38.042380623637506 ] } },
{ "type": "Feature", "properties": { "Name": "Butler, John", "Address": "525 VALLEY RD", "approval date": "3\/4\/16" }, "geometry": { "type": "Point", "coordinates": [ -78.50607686800916, 38.029235720938864 ] } },
{ "type": "Feature", "properties": { "Name": "John Butter", "Address": "525 VALLEY RD", "approval date": "7\/25\/18" }, "geometry": { "type": "Point", "coordinates": [ -78.50607686800916, 38.029235720938864 ] } },
{ "type": "Feature", "properties": { "Name": "Detra, Anna", "Address": "624 WATSON AVE", "approval date": "5\/2\/16" }, "geometry": { "type": "Point", "coordinates": [ -78.469583864072121, 38.039815551770836 ] } },
{ "type": "Feature", "properties": { "Name": "Kassell, Lee", "Address": "1859 WAYSIDE PL", "approval date": "4\/20\/16" }, "geometry": { "type": "Point", "coordinates": [ -78.50248489342718, 38.044899260624099 ] } },
{ "type": "Feature", "properties": { "Name": "Miller, Travis", "Address": "718 WEST ST", "approval date": "6\/25\/16" }, "geometry": { "type": "Point", "coordinates": [ -78.488509172223516, 38.035113284392068 ] } },
{ "type": "Feature", "properties": { "Name": "Boatner, jane", "Address": "1524 WESTWOOD RD", "approval date": "8\/19\/16" }, "geometry": { "type": "Point", "coordinates": [ -78.486292647152311, 38.044391513112451 ] } },
{ "type": "Feature", "properties": { "Name": "Battistelli, Lorenzo", "Address": "2610 WILLARD DR", "approval date": "4\/20\/16" }, "geometry": { "type": "Point", "coordinates": [ -78.508294790891568, 38.016786989632166 ] } },
{ "type": "Feature", "properties": { "Name": "Doudera, Elizabeth", "Address": "1319 WILLOW DR", "approval date": "4\/25\/16" }, "geometry": { "type": "Point", "coordinates": [ -78.461754940155615, 38.034455074243652 ] } },
{ "type": "Feature", "properties": { "Name": "Jay, Joan", "Address": "1859 WINSTON RD", "approval date": "10\/30\/15" }, "geometry": { "type": "Point", "coordinates": [ -78.500975172175671, 38.047133040605914 ] } },
{ "type": "Feature", "properties": { "Name": "Blanco, Logan", "Address": "1200 E JEFFERSON ST", "approval date": "10\/12\/15" }, "geometry": { "type": "Point", "coordinates": [ -78.469098609860382, 38.028349153366264 ] } },
{ "type": "Feature", "properties": { "Name": "Scurlock, Wallace", "Address": "805 RAYMOND RD", "approval date": "5\/17\/17" }, "geometry": { "type": "Point", "coordinates": [ -78.493026915563419, 38.019888125194463 ] } },
{ "type": "Feature", "properties": { "Name": "Lorish, Lisa", "Address": "303 5TH ST SW", "approval date": "5\/26\/17" }, "geometry": { "type": "Point", "coordinates": [ -78.48914605368789, 38.028889798793003 ] } },
{ "type": "Feature", "properties": { "Name": "Thompson, Summerlyn", "Address": "1601 E MARKET ST", "approval date": "5\/30\/17" }, "geometry": { "type": "Point", "coordinates": [ -78.461830265394767, 38.024285369466355 ] } },
{ "type": "Feature", "properties": { "Name": "Thompson, Summerlyn L ", "Address": "1601 E MARKET ST", "approval date": "1\/12\/18" }, "geometry": { "type": "Point", "coordinates": [ -78.461830265394767, 38.024285369466355 ] } },
{ "type": "Feature", "properties": { "Name": "Yanta-O'Mahoney, Claire", "Address": "509 DRUID AVE", "approval date": "6\/22\/17" }, "geometry": { "type": "Point", "coordinates": [ -78.484348921059947, 38.021137634463756 ] } },
{ "type": "Feature", "properties": { "Name": "Fisher, Thomas", "Address": "1114 FOREST HILLS AVE", "approval date": "5\/16\/17" }, "geometry": { "type": "Point", "coordinates": [ -78.49991076191823, 38.025236556203026 ] } },
{ "type": "Feature", "properties": { "Name": "Oliveri, Susan", "Address": "1419 CHESAPEAKE ST", "approval date": "5\/16\/17" }, "geometry": { "type": "Point", "coordinates": [ -78.461379988984675, 38.025436386123289 ] } },
{ "type": "Feature", "properties": { "Name": "Downs, Bill", "Address": "730 GROVE AVE", "approval date": "6\/12\/17" }, "geometry": { "type": "Point", "coordinates": [ -78.467761923984753, 38.034490058127716 ] } },
{ "type": "Feature", "properties": { "Name": "Sunya, Sambita", "Address": "1600 MONTICELLO RD", "approval date": "6\/9\/17" }, "geometry": { "type": "Point", "coordinates": [ -78.473105219236189, 38.017396579376452 ] } },
{ "type": "Feature", "properties": { "Name": "Sunya, Sambita", "Address": "1600 MONTICELLO RD", "approval date": "6\/9\/17" }, "geometry": { "type": "Point", "coordinates": [ -78.473105219236189, 38.017396579376452 ] } },
{ "type": "Feature", "properties": { "Name": "Charles, Matthew", "Address": "203 DOUGLAS AVE", "approval date": "5\/26\/17" }, "geometry": { "type": "Point", "coordinates": [ -78.473642826386637, 38.027208505827751 ] } },
{ "type": "Feature", "properties": { "Name": "White, Billy", "Address": "1115 BLENHEIM AVE", "approval date": "6\/9\/17" }, "geometry": { "type": "Point", "coordinates": [ -78.473201517117772, 38.019759195327467 ] } },
{ "type": "Feature", "properties": { "Name": "Josheph tompson", "Address": "106 BURNET WAY", "approval date": "8\/2\/17" }, "geometry": { "type": "Point", "coordinates": [ -78.48818725776006, 38.023730054720126 ] } },
{ "type": "Feature", "properties": { "Name": "Howard, Tim", "Address": "508 PATON ST", "approval date": "8\/3\/17" }, "geometry": { "type": "Point", "coordinates": [ -78.501941530973184, 38.026927697401341 ] } },
{ "type": "Feature", "properties": { "Name": "swink, Jeremy", "Address": "121 MORGAN CT", "approval date": null }, "geometry": { "type": "Point", "coordinates": [ -78.520213124300952, 38.021399464803508 ] } },
{ "type": "Feature", "properties": { "Name": "Swink, Jeremy ", "Address": "121 MORGAN CT", "approval date": "7\/31\/17" }, "geometry": { "type": "Point", "coordinates": [ -78.520213124300952, 38.021399464803508 ] } },
{ "type": "Feature", "properties": { "Name": "Anderson, Robert", "Address": "310 12TH ST NE", "approval date": "8\/9\/17" }, "geometry": { "type": "Point", "coordinates": [ -78.467892204187081, 38.029075033349244 ] } },
{ "type": "Feature", "properties": { "Name": "Riedesel, Anna", "Address": "614 BOLLING AVE #A", "approval date": "8\/10\/17" }, "geometry": { "type": "Point", "coordinates": [ -78.480645308119989, 38.023847140459068 ] } },
{ "type": "Feature", "properties": { "Name": "Mondeau, Susan", "Address": "405 DICE ST", "approval date": "8\/5\/17" }, "geometry": { "type": "Point", "coordinates": [ -78.487870151748268, 38.028724604092908 ] } },
{ "type": "Feature", "properties": { "Name": "Boatwright, Jeanne", "Address": "2517 PLATEAU RD", "approval date": "8\/3\/17" }, "geometry": { "type": "Point", "coordinates": [ -78.522128293187336, 38.025401035049534 ] } },
{ "type": "Feature", "properties": { "Name": "Zuffoletti, Jim", "Address": "1331 HILLTOP RD", "approval date": "8\/9\/17" }, "geometry": { "type": "Point", "coordinates": [ -78.490868938238421, 38.051594969984897 ] } },
{ "type": "Feature", "properties": { "Name": "McDermott, Gail", "Address": "604 ORANGE ST", "approval date": "8\/9\/17" }, "geometry": { "type": "Point", "coordinates": [ -78.467564672927153, 38.032448635839302 ] } },
{ "type": "Feature", "properties": { "Name": "Collins, Chris", "Address": "1392 AVON ST", "approval date": "8\/10\/17" }, "geometry": { "type": "Point", "coordinates": [ -78.483867719321751, 38.017553754085746 ] } },
{ "type": "Feature", "properties": { "Name": "Westbrook, Christopher", "Address": "615 BLENHEIM AVE", "approval date": "7\/25\/17" }, "geometry": { "type": "Point", "coordinates": [ -78.481468347664133, 38.023564991511293 ] } },
{ "type": "Feature", "properties": { "Name": "Tabony, Katherine", "Address": "420 OAK ST", "approval date": "7\/25\/17" }, "geometry": { "type": "Point", "coordinates": [ -78.489314573811725, 38.027974127058194 ] } },
{ "type": "Feature", "properties": { "Name": "Tabony, Katherine Snider", "Address": "420 OAK ST", "approval date": "3\/9\/18" }, "geometry": { "type": "Point", "coordinates": [ -78.489314573811725, 38.027974127058194 ] } },
{ "type": "Feature", "properties": { "Name": "Mordell, Susan", "Address": "115 TODD AVE", "approval date": "7\/24\/17" }, "geometry": { "type": "Point", "coordinates": [ -78.513529850734585, 38.025211617513918 ] } },
{ "type": "Feature", "properties": { "Name": "International Business Operations LLC", "Address": "108 BLINCOE LN", "approval date": "7\/19\/17" }, "geometry": { "type": "Point", "coordinates": [ -78.484056162020707, 38.016332234853643 ] } },
{ "type": "Feature", "properties": { "Name": "Coggin, Taylor", "Address": "1008 BOLLING AVE #A", "approval date": "7\/24\/17" }, "geometry": { "type": "Point", "coordinates": [ -78.474682676195059, 38.021082278012386 ] } },
{ "type": "Feature", "properties": { "Name": "Ivey, Jason", "Address": "1808 E MARKET ST", "approval date": "7\/24\/17" }, "geometry": { "type": "Point", "coordinates": [ -78.457633066529922, 38.022234741334891 ] } },
{ "type": "Feature", "properties": { "Name": "Matthews, Janet", "Address": "500 LEXINGTON AVE", "approval date": "7\/26\/17" }, "geometry": { "type": "Point", "coordinates": [ -78.472536568016821, 38.033080111795826 ] } },
{ "type": "Feature", "properties": { "Name": "Dacus, Angelo", "Address": "714 LOCUST AVE", "approval date": "7\/24\/17" }, "geometry": { "type": "Point", "coordinates": [ -78.469127505235591, 38.034506519345165 ] } },
{ "type": "Feature", "properties": { "Name": "Konstadinos, Lazarakis", "Address": "311 MEADE AVE", "approval date": "7\/5\/17" }, "geometry": { "type": "Point", "coordinates": [ -78.466423652683147, 38.028210245822429 ] } },
{ "type": "Feature", "properties": { "Name": "Smith, Lindsey", "Address": "1339 E MARKET ST", "approval date": "8\/29\/17" }, "geometry": { "type": "Point", "coordinates": [ -78.46422398260556, 38.025274887875057 ] } },
{ "type": "Feature", "properties": { "Name": "Boolen, Leslie", "Address": "110 THOMAS DR", "approval date": "8\/15\/17" }, "geometry": { "type": "Point", "coordinates": [ -78.506240231290775, 38.026165996397566 ] } },
{ "type": "Feature", "properties": { "Name": "Booren, Leslie", "Address": "110 THOMAS DR", "approval date": "3\/20\/18" }, "geometry": { "type": "Point", "coordinates": [ -78.506240231290775, 38.026165996397566 ] } },
{ "type": "Feature", "properties": { "Name": "Stevens, James", "Address": "612 BROWN ST", "approval date": "5\/29\/17" }, "geometry": { "type": "Point", "coordinates": [ -78.488856457375888, 38.032406779607165 ] } },
{ "type": "Feature", "properties": { "Name": "McCabe, Holly", "Address": "403 ALLEN DR", "approval date": "8\/29\/17" }, "geometry": { "type": "Point", "coordinates": [ -78.507871543803745, 38.016905374675495 ] } },
{ "type": "Feature", "properties": { "Name": "Thompson, Lauren", "Address": "1515 RUGBY AVE", "approval date": "8\/29\/17" }, "geometry": { "type": "Point", "coordinates": [ -78.484919344779669, 38.045664858157274 ] } },
{ "type": "Feature", "properties": { "Name": "Deppmann, Christopher", "Address": "200 LANKFORD AVE", "approval date": "9\/5\/17" }, "geometry": { "type": "Point", "coordinates": [ -78.488665579147295, 38.02212006694662 ] } },
{ "type": "Feature", "properties": { "Name": "Walker, Jennifer", "Address": "927 RAYMOND RD", "approval date": "5\/1\/18" }, "geometry": { "type": "Point", "coordinates": [ -78.493156446830469, 38.017204287345365 ] } },
{ "type": "Feature", "properties": { "Name": "Critzer, James Patrick ", "Address": "613 ELLIOTT AVE", "approval date": "5\/1\/18" }, "geometry": { "type": "Point", "coordinates": [ -78.482415840001224, 38.021899384298663 ] } },
{ "type": "Feature", "properties": { "Name": "Necher, Sara E", "Address": "2303 PRICE AVE", "approval date": "4\/28\/18" }, "geometry": { "type": "Point", "coordinates": [ -78.516719104907125, 38.027434027326208 ] } },
{ "type": "Feature", "properties": { "Name": "Lyons, Shawn ", "Address": "709 ROCK CREEK RD", "approval date": "3\/30\/18" }, "geometry": { "type": "Point", "coordinates": [ -78.500023600794606, 38.022827133581465 ] } },
{ "type": "Feature", "properties": { "Name": "Berg, Sean", "Address": "628 DICE ST", "approval date": "4\/6\/18" }, "geometry": { "type": "Point", "coordinates": [ -78.491094947200622, 38.029630362144488 ] } },
{ "type": "Feature", "properties": { "Name": "Hart, Sarah Elaine", "Address": "416 DICE ST", "approval date": "4\/6\/18" }, "geometry": { "type": "Point", "coordinates": [ -78.488536472701526, 38.02871284994503 ] } },
{ "type": "Feature", "properties": { "Name": "Thomas, Matt and Julie", "Address": "1444 PLYMOUTH RD", "approval date": "3\/24\/18" }, "geometry": { "type": "Point", "coordinates": [ -78.481545595293213, 38.047506826949103 ] } },
{ "type": "Feature", "properties": { "Name": "Hefner, Nate", "Address": "1302 KING ST", "approval date": "4\/17\/18" }, "geometry": { "type": "Point", "coordinates": [ -78.501731577241827, 38.027851541204271 ] } },
{ "type": "Feature", "properties": { "Name": "Edwards, Russell ", "Address": "917 ANDERSON ST", "approval date": "3\/15\/18" }, "geometry": { "type": "Point", "coordinates": [ -78.491534237394333, 38.036386174794437 ] } },
{ "type": "Feature", "properties": { "Name": "Cave, Mark", "Address": "2644 JEFFERSON PARK CIR", "approval date": "3\/9\/18" }, "geometry": { "type": "Point", "coordinates": [ -78.516631350929458, 38.017270748963533 ] } },
{ "type": "Feature", "properties": { "Name": "Kori, Nilamma ", "Address": "613 BELMONT AVE", "approval date": "3\/9\/18" }, "geometry": { "type": "Point", "coordinates": [ -78.47939739144519, 38.025637357752885 ] } },
{ "type": "Feature", "properties": { "Name": "Wampler, Richard", "Address": "1102 LITTLE HIGH ST", "approval date": "3\/9\/18" }, "geometry": { "type": "Point", "coordinates": [ -78.470706547567858, 38.030481034800616 ] } },
{ "type": "Feature", "properties": { "Name": "Taza, Rachel", "Address": "229 BURNET ST", "approval date": "1\/16\/17" }, "geometry": { "type": "Point", "coordinates": [ -78.487310596623146, 38.025902629627204 ] } },
{ "type": "Feature", "properties": { "Name": "Baker, Jason D", "Address": "698 HIGHLAND AVE", "approval date": "2\/23\/18" }, "geometry": { "type": "Point", "coordinates": [ -78.506407261193004, 38.018827259488674 ] } },
{ "type": "Feature", "properties": { "Name": "Strong, Michael and Margaret", "Address": "1616 AMHERST ST", "approval date": "1\/30\/18" }, "geometry": { "type": "Point", "coordinates": [ -78.488981742801741, 38.042727174698875 ] } },
{ "type": "Feature", "properties": { "Name": "Rothwell, Nan", "Address": "700 WILDER DR", "approval date": "1\/9\/18" }, "geometry": { "type": "Point", "coordinates": [ -78.46785505555853, 38.045953704544118 ] } },
{ "type": "Feature", "properties": { "Name": "Fein, Aaron", "Address": "1523 OXFORD RD", "approval date": "1\/26\/18" }, "geometry": { "type": "Point", "coordinates": [ -78.485575833536799, 38.047444407495028 ] } },
{ "type": "Feature", "properties": { "Name": "Thornton, Margaret", "Address": "332 10 1\/2 ST NW", "approval date": "12\/27\/18" }, "geometry": { "type": "Point", "coordinates": [ -78.493608084814767, 38.036625760820101 ] } },
{ "type": "Feature", "properties": { "Name": "Ryan, Mike", "Address": "931 BELMONT AVE", "approval date": "1\/26\/18" }, "geometry": { "type": "Point", "coordinates": [ -78.473997648765831, 38.023192975122981 ] } },
{ "type": "Feature", "properties": { "Name": "Jones Jr, James L ", "Address": "210 CREAM ST", "approval date": "1\/26\/18" }, "geometry": { "type": "Point", "coordinates": [ -78.48964228486183, 38.032568046286123 ] } },
{ "type": "Feature", "properties": { "Name": "Nguyen, Tiffany ", "Address": "904 ROCKLAND AVE", "approval date": "1\/26\/18" }, "geometry": { "type": "Point", "coordinates": [ -78.480183234370415, 38.016402874007127 ] } },
{ "type": "Feature", "properties": { "Name": "Free, Kathleen", "Address": "1007 PARK ST", "approval date": "12\/4\/17" }, "geometry": { "type": "Point", "coordinates": [ -78.471097034591367, 38.041668031318451 ] } },
{ "type": "Feature", "properties": { "Name": "Brubach, Elizabeth Y", "Address": "700 GRAVES ST", "approval date": "11\/30\/17" }, "geometry": { "type": "Point", "coordinates": [ -78.476749417353545, 38.026967536810425 ] } },
{ "type": "Feature", "properties": { "Name": "Boeschenstein, Eleanne ", "Address": "717 ALTAVISTA AVE", "approval date": "1\/10\/18" }, "geometry": { "type": "Point", "coordinates": [ -78.480594880739588, 38.020036932497383 ] } },
{ "type": "Feature", "properties": { "Name": "Redmont Holdings LLC (Lewis, Clare)", "Address": "603 WATSON AVE", "approval date": "10\/5\/17" }, "geometry": { "type": "Point", "coordinates": [ -78.470711340464007, 38.040903450916453 ] } },
{ "type": "Feature", "properties": { "Name": "Brunner, Marguerite ", "Address": "604 MCINTIRE RD", "approval date": "10\/5\/17" }, "geometry": { "type": "Point", "coordinates": [ -78.4792037139771, 38.037053905006935 ] } },
{ "type": "Feature", "properties": { "Name": "Gilkey, Amos", "Address": "123 CAMERON LN", "approval date": "10\/13\/17" }, "geometry": { "type": "Point", "coordinates": [ -78.511030183845733, 38.040058045481167 ] } },
{ "type": "Feature", "properties": { "Name": "Keppel, Marshall", "Address": "421 MOBILE LN", "approval date": "10\/2\/17" }, "geometry": { "type": "Point", "coordinates": [ -78.516774211643053, 38.01179964708524 ] } },
{ "type": "Feature", "properties": { "Name": "Levine, Lynne", "Address": "1213 AUGUSTA ST", "approval date": "9\/12\/17" }, "geometry": { "type": "Point", "coordinates": [ -78.485809228428877, 38.043419312294574 ] } },
{ "type": "Feature", "properties": { "Name": "Lindley, Alison", "Address": "722 PARK ST #B", "approval date": "8\/17\/17" }, "geometry": { "type": "Point", "coordinates": [ -78.474018974493433, 38.038493802538262 ] } },
{ "type": "Feature", "properties": { "Name": "Rodland, Kyle ", "Address": "602 MONTROSE AVE", "approval date": "9\/1\/17" }, "geometry": { "type": "Point", "coordinates": [ -78.482230105218591, 38.022543619458254 ] } },
{ "type": "Feature", "properties": { "Name": "Garibay, Juan", "Address": "829 NALLE ST", "approval date": "8\/3\/17" }, "geometry": { "type": "Point", "coordinates": [ -78.493999989267877, 38.030250255303564 ] } },
{ "type": "Feature", "properties": { "Name": "Spellman, Zoe", "Address": "907 BLENHEIM AVE #A", "approval date": "10\/23\/18" }, "geometry": { "type": "Point", "coordinates": [ -78.47639400431656, 38.021217616791574 ] } },
{ "type": "Feature", "properties": { "Name": "Beamer, Zachary ", "Address": "1006 BLENHEIM AVE", "approval date": "10\/13\/18" }, "geometry": { "type": "Point", "coordinates": [ -78.475038651228871, 38.020229470839389 ] } },
{ "type": "Feature", "properties": { "Name": "Brewer, Richard ", "Address": "808 MONTICELLO AVE #B", "approval date": "11\/2\/17" }, "geometry": { "type": "Point", "coordinates": [ -78.477017199915835, 38.023194419136146 ] } },
{ "type": "Feature", "properties": { "Name": "Sullenberger, James", "Address": "608 BELMONT AVE", "approval date": "11\/13\/17" }, "geometry": { "type": "Point", "coordinates": [ -78.479894111327425, 38.025551925751287 ] } },
{ "type": "Feature", "properties": { "Name": "Mathews, Marian", "Address": "311 6 1\/2 ST SW", "approval date": "11\/13\/17" }, "geometry": { "type": "Point", "coordinates": [ -78.490645810727855, 38.029144086317778 ] } },
{ "type": "Feature", "properties": { "Name": "Blessing, Caitlin ", "Address": "809 ANDERSON ST", "approval date": "11\/17\/17" }, "geometry": { "type": "Point", "coordinates": [ -78.490139865767219, 38.035314448990924 ] } },
{ "type": "Feature", "properties": { "Name": "McCleary, Kristen ", "Address": "1201 LITTLE HIGH ST", "approval date": "11\/30\/17" }, "geometry": { "type": "Point", "coordinates": [ -78.467975218257891, 38.029833664269944 ] } },
{ "type": "Feature", "properties": { "Name": "Dreyer, Mary D", "Address": "1549 RUGBY AVE", "approval date": "12\/18\/17" }, "geometry": { "type": "Point", "coordinates": [ -78.488224684684297, 38.046082345257346 ] } },
{ "type": "Feature", "properties": { "Name": "Glaettli, Alioth R Jr", "Address": "741 GRAVES ST", "approval date": "12\/28\/17" }, "geometry": { "type": "Point", "coordinates": [ -78.474949215368184, 38.027356000294759 ] } },
{ "type": "Feature", "properties": { "Name": "Benedict, Amanda K", "Address": "912 ROUGEMONT AVE", "approval date": "3\/8\/18" }, "geometry": { "type": "Point", "coordinates": [ -78.48070040406671, 38.014614120200989 ] } },
{ "type": "Feature", "properties": { "Name": "Fienner, Cody", "Address": "119 RIVERBLUFF CIR", "approval date": "7\/10\/18" }, "geometry": { "type": "Point", "coordinates": [ -78.457242207132637, 38.028065614755285 ] } },
{ "type": "Feature", "properties": { "Name": "Bouman, Lsa Mane", "Address": "600 HINTON AVE", "approval date": "3\/20\/18" }, "geometry": { "type": "Point", "coordinates": [ -78.479567863815461, 38.026454982248545 ] } },
{ "type": "Feature", "properties": { "Name": "Lyons, Lucas and Sonia", "Address": "427 MOBILE LN", "approval date": "2\/20\/18" }, "geometry": { "type": "Point", "coordinates": [ -78.517331001850067, 38.011687983130017 ] } },
{ "type": "Feature", "properties": { "Name": "Biggs, Janette", "Address": "523 VALLEY RD", "approval date": "7\/10\/18" }, "geometry": { "type": "Point", "coordinates": [ -78.505959210626543, 38.029356210653773 ] } },
{ "type": "Feature", "properties": { "Name": "Nautilus Holdings LLC (Peter Carlson)", "Address": "2317 FONTAINE AVE #B", "approval date": "7\/10\/18" }, "geometry": { "type": "Point", "coordinates": [ -78.518032730861407, 38.026105242878131 ] } },
{ "type": "Feature", "properties": { "Name": "Clothiaux, Ana-Aegi ", "Address": "501 STONEHENGE AVE", "approval date": "6\/29\/18" }, "geometry": { "type": "Point", "coordinates": [ -78.48570274874443, 38.020424415737693 ] } },
{ "type": "Feature", "properties": { "Name": "Post, Hunter", "Address": "1714 KING MOUNTAIN RD", "approval date": "7\/10\/18" }, "geometry": { "type": "Point", "coordinates": [ -78.481202483458119, 38.061311091655405 ] } },
{ "type": "Feature", "properties": { "Name": "Schnorr, William ", "Address": "108 BURNET WAY", "approval date": "5\/18\/18" }, "geometry": { "type": "Point", "coordinates": [ -78.488279645120883, 38.023622600737696 ] } },
{ "type": "Feature", "properties": { "Name": "Andrews, Dean", "Address": "118 CAMERON LN", "approval date": "5\/11\/18" }, "geometry": { "type": "Point", "coordinates": [ -78.510383882656399, 38.040203283421633 ] } },
{ "type": "Feature", "properties": { "Name": "Zia, Narjess", "Address": "104 NORTH BAKER ST", "approval date": "5\/8\/18" }, "geometry": { "type": "Point", "coordinates": [ -78.50311778425511, 38.026328970128965 ] } },
{ "type": "Feature", "properties": { "Name": "Kellett, Catherine ", "Address": "604 LOCUST AVE", "approval date": "5\/8\/18" }, "geometry": { "type": "Point", "coordinates": [ -78.469958451750941, 38.033368317193457 ] } },
{ "type": "Feature", "properties": { "Name": "Woolheater, Charles", "Address": "1448 KENWOOD LN", "approval date": "5\/18\/18" }, "geometry": { "type": "Point", "coordinates": [ -78.47630623910851, 38.055840866613877 ] } },
{ "type": "Feature", "properties": { "Name": "Feaver, Ryan", "Address": "1420 LESTER DR", "approval date": "6\/8\/18" }, "geometry": { "type": "Point", "coordinates": [ -78.473597611849144, 38.057982767640269 ] } },
{ "type": "Feature", "properties": { "Name": "Noble, Linda", "Address": "701 HIGHLAND AVE", "approval date": "5\/25\/18" }, "geometry": { "type": "Point", "coordinates": [ -78.505999826929042, 38.019117595128826 ] } },
{ "type": "Feature", "properties": { "Name": "Mahalo LLC (Ross McDermott)", "Address": "704 GRAVES ST", "approval date": "6\/29\/18" }, "geometry": { "type": "Point", "coordinates": [ -78.476269736624658, 38.02700276097957 ] } },
{ "type": "Feature", "properties": { "Name": "Marie, Chelsea", "Address": "1027 GROVE ST", "approval date": "6\/15\/18" }, "geometry": { "type": "Point", "coordinates": [ -78.499165324734633, 38.029484001757481 ] } },
{ "type": "Feature", "properties": { "Name": "Winstbad, Robert and Mildred ", "Address": "912 OLD FARM RD", "approval date": "6\/5\/18" }, "geometry": { "type": "Point", "coordinates": [ -78.497959387275543, 38.046374582100249 ] } },
{ "type": "Feature", "properties": { "Name": "Lee, Haerin ", "Address": "1602 DUBLIN RD", "approval date": "7\/26\/18" }, "geometry": { "type": "Point", "coordinates": [ -78.502634347335544, 38.019442460824386 ] } },
{ "type": "Feature", "properties": { "Name": "Nightengale, Mary ", "Address": "301 10 1\/2 ST NW", "approval date": "10\/2\/17" }, "geometry": { "type": "Point", "coordinates": [ -78.494438868832262, 38.035681969112332 ] } },
{ "type": "Feature", "properties": { "Name": "Vohra, Norman", "Address": "501 MERIDIAN ST", "approval date": "8\/21\/18" }, "geometry": { "type": "Point", "coordinates": [ -78.47505773349566, 38.024311420406846 ] } },
{ "type": "Feature", "properties": { "Name": "Reidy, Megan", "Address": "1147 KENSINGTON AVE", "approval date": "9\/13\/18" }, "geometry": { "type": "Point", "coordinates": [ -78.490132888596577, 38.044231736703999 ] } },
{ "type": "Feature", "properties": { "Name": "Amberly, William", "Address": "1106 PARKER PL", "approval date": "9\/13\/18" }, "geometry": { "type": "Point", "coordinates": [ -78.4896089656241, 38.046628226162426 ] } },
{ "type": "Feature", "properties": { "Name": "Smith, Melinda", "Address": "218 5TH ST SW #A", "approval date": "8\/2\/18" }, "geometry": { "type": "Point", "coordinates": [ -78.488446731980034, 38.029409829238475 ] } },
{ "type": "Feature", "properties": { "Name": "Denham, Sean", "Address": "409 MOSELEY DR", "approval date": "9\/13\/18" }, "geometry": { "type": "Point", "coordinates": [ -78.508673841999695, 38.018337004263323 ] } },
{ "type": "Feature", "properties": { "Name": "Lassure, Anne", "Address": "905 ELLIOTT AVE", "approval date": "8\/7\/18" }, "geometry": { "type": "Point", "coordinates": [ -78.47772551337566, 38.019766412056661 ] } },
{ "type": "Feature", "properties": { "Name": "Duda, Erik", "Address": "1014 ST CHARLES AVE", "approval date": "8\/16\/18" }, "geometry": { "type": "Point", "coordinates": [ -78.463391061196731, 38.041977597536381 ] } },
{ "type": "Feature", "properties": { "Name": "Averill, Alan", "Address": "108 LOCUST LN CT", "approval date": "9\/1\/18" }, "geometry": { "type": "Point", "coordinates": [ -78.459282386527505, 38.045718087304543 ] } },
{ "type": "Feature", "properties": { "Name": "Spillman, Sam", "Address": "199 BROOKWOOD DR", "approval date": "11\/14\/18" }, "geometry": { "type": "Point", "coordinates": [ -78.494007839823382, 38.017889820211202 ] } },
{ "type": "Feature", "properties": { "Name": "Johnson, Brandon", "Address": "1651 MULBERRY AVE", "approval date": "11\/10\/18" }, "geometry": { "type": "Point", "coordinates": [ -78.510085671016782, 38.02223448970436 ] } },
{ "type": "Feature", "properties": { "Name": "Pack, Lauren", "Address": "907 LOCUST LN", "approval date": "11\/14\/18" }, "geometry": { "type": "Point", "coordinates": [ -78.459659262233558, 38.045160234572698 ] } },
{ "type": "Feature", "properties": { "Name": "Merlene, Matthew", "Address": "812 NORTH AVE", "approval date": "11\/14\/18" }, "geometry": { "type": "Point", "coordinates": [ -78.465624038104266, 38.042684794710794 ] } },
{ "type": "Feature", "properties": { "Name": "henderson, Hope", "Address": "336 11TH ST NW", "approval date": "10\/30\/18" }, "geometry": { "type": "Point", "coordinates": [ -78.494358301540672, 38.037022001624315 ] } },
{ "type": "Feature", "properties": { "Name": "Summers, Jordan", "Address": "1410 GENTRY LN", "approval date": "11\/14\/18" }, "geometry": { "type": "Point", "coordinates": [ -78.487347550139873, 38.051502702225292 ] } },
{ "type": "Feature", "properties": { "Name": "Batton, Seth", "Address": "1205 GROVE ST", "approval date": "11\/16\/18" }, "geometry": { "type": "Point", "coordinates": [ -78.501561728371996, 38.028954461277934 ] } },
{ "type": "Feature", "properties": { "Name": "Pennock, Charity", "Address": "1721 CONCORD DR", "approval date": "11\/16\/18" }, "geometry": { "type": "Point", "coordinates": [ -78.475232077301712, 38.057070824724491 ] } }
]
}
